[
  {
    "name": "남문감자탕",
    "phone": "042-488-5992",
    "location": "대전광역시 서구 월평서로 12",
    "type": 0
  },
  {
    "name": "쌈의 대가",
    "phone": "042-861-3611",
    "location": "대전 유성구 농대로8번길 19",
    "type": 0
  },
  {
    "name": "학생회관",
    "phone": "042-825-4499",
    "location": "대전광역시 유성구 궁동로18번길 86 1층 102호",
    "type": 0
  },
  {
    "name": "어랑족",
    "phone": "042-826-8889",
    "location": "대전광역시 유성구 어은로58번길 12",
    "type": 0
  },
  {
    "name": "소림마라",
    "phone": "042-522-9970",
    "location": "대전광역시 서구 계룡로342번길 143",
    "type": 1
  },
  {
    "name": "탕화쿵푸",
    "phone": "042-486-8988",
    "location": "대전광역시 서구 둔산로31번길 38",
    "type": 1
  },
  {
    "name": "왕비성",
    "phone": "042-862-9292",
    "location": "대전광역시 유성구 어은로48번길 23",
    "type": 1
  },
  {
    "name": "연취",
    "phone": "042-825-6239",
    "location": "대전광역시 유성구 대학로163번길 31",
    "type": 1
  },
  {
    "name": "어은스시",
    "phone": "042-863-5306",
    "location": "대전 유성구 어은로48번길 9-11",
    "type": 2
  },
  {
    "name": "상무초밥",
    "phone": "042-825-8983",
    "location": "대전광역시 유성구 대학로 44 1층 106~110호",
    "type": 2
  },
  {
    "name": "스바라시라멘",
    "phone": "042-477-7909",
    "location": "대전 유성구 문화원로 77",
    "type": 2
  },
  {
    "name": "파스타부오노",
    "phone": "042-826-2579",
    "location": "대전광역시 유성구 대학로145번길 36",
    "type": 3
  },
  {
    "name": "소프트 포테이토 샵",
    "phone": "070-4647-3944",
    "location": "대전 서구 신갈마로230번길 18",
    "type": 3
  },
  {
    "name": "대학생치킨",
    "phone": "042-8201-2386",
    "location": "대전광역시 유성구 어은로52번길 15",
    "type": 4
  },
  {
    "name": "자니스펍",
    "phone": "042-861-0800",
    "location": "대전광역시 유성구 어은로 48",
    "type": 4
  },
  {
    "name": "광세족발",
    "phone": "042-863-6142",
    "location": "대전광역시 유성구 전민로22번길 51",
    "type": 5
  },
  {
    "name": "신포차화끈이불닭",
    "phone": "042-483-8251",
    "location": "대전광역시 서구 월평중로14번길 53",
    "type": 5
  }
]